Full Address,id,lat,lng,adl
ASIAN RETAIL VENTURES,1,28.685147,77.0920669,1922
CAMPUS ACTIVEWEAR PRIVATE LIMITED,2,28.6835189,77.0170964,1251
SBG Retails,3,28.6453879,77.286847,768
PKKART.COM,4,28.7494317,77.1125599,732
DSM INDIA,5,28.7081035,77.0851471,703
Ganpati FSN Trading,6,28.6833529,77.2617344,701
RAMA KRISHNA TRADERS,7,28.6784295,77.0523042,665
TANVI ENTERPRISES,8,28.7443116,77.2005338,661
Lyvi Wardrobe Private Limited,9,28.5028226,77.2013319,647
KHANEJA TRADERS,10,28.735011,77.1636148,627
D.N. ENTERPRISES,11,28.7528356,77.1379777,598
VANI ENTERPRISES,12,28.7077712,77.2867217,575
MR ONLINE STORE,13,28.5290592,77.26386861,524
JJ ENTERPRISES,14,28.714166,77.3216576,523
Vinay,15,28.6573889,77.2121415,501
M.S.LED LIGHT TRADERS,16,28.6799366,77.3412154,485
ATZ RETAIL,17,28.7128255,77.0773484,479
VANESA CARE PVT LTD,18,28.7538512,77.15608245,468
S.S RETAIL,19,28.6973313,77.0970334,456
SUN SHOPPING,20,28.5086103,77.2278629,448
ROYAAL TRADERS,21,28.519784,77.178561,446
AKSA ENTERPRISES,22,28.6873832,77.2624359,434
SHUBH UPAHAAR,23,28.7827904,77.0533873,433
R S TRADERS,24,28.655271,77.28947,427
parishi trading company,25,28.7000408,77.1595535,397
Callmate India pvt Ltd,26,28.5490668,77.1312743,373
KALKAJI TRADING,27,28.6636981,77.2912573,371
DO BHAI BAGS AND LUGGAGE,28,28.6251698,77.1237827,356
LOIS CARON PRIVATE LIMITED,29,28.642291,77.296848,354
GLOBAL IMPEX,30,28.6708205,77.1672845,344
Meet Sales,31,28.54959983,77.28947068,340
SHOP IN ALL,32,28.6917233,77.2607807,333
ADITYA TIME,33,28.708906,77.1694437,313
WHOLESOME DEAL,34,28.5132572,77.2294595,311
VIKAS TRADERS,35,28.6457718,77.2869988,281
OnPoint Enterprises,36,28.6269222,77.2883576,280
GOYAL ENTERPRISES,37,28.6997737,77.1154589,274
DSM INDIA,38,28.7081035,77.0851471,274
OM ENTERPRISES,39,28.49098,77.307843,269
CUTECODE STREET STYLE STORE LLP,40,28.8418463,77.0902177,253
IMAGINE DESIGN STUDIOS,41,28.6399036,77.2877633,231
Shri Banke Bihari Enterprises,42,28.6664205,77.1020795,228
E-TECH ENTERPRISES,43,28.6865002,77.1293165,227
EXPODE INNOVATIONS PRIVATE LIMITED,44,28.6848546,77.137371,224
NEELAM ENTERPRISES,45,28.6533102,77.2922264,216
AR TRADERS,46,28.6456045,77.2127784,213
iSMART TECHNOLOGY,47,28.6762007,77.3007964,210
DSM INDIA,48,28.7081035,77.0851471,204
KATSO DESIGNS,49,28.6304732,77.1269438,195
Portronics Digital Pvt. Ltd.,50,28.70316267,77.17055434,194
SS STYLE,51,28.7485593,77.1141023,192
ROHIT,52,28.6913961,77.2554351,189
mansiya creations,53,28.7011236,77.098354,186
Mudita Enterprises,54,28.7001862,77.2734617,185
GUNJAN ENTERPRISES,55,28.671104,77.1231885,183
OLIVE OPS,56,28.697941,77.1465055,181
R B S IMPEX,57,28.53859808,77.11636951,178
KASHISH DRESSES,58,28.6282267,77.2813183,178
LOOMANTHA ENTERPRISES PRIVATE LIMITED,59,28.6153075,77.0473215,174
SHREE OM ENTERPRISES,60,28.67442584,77.16222219,174
KESHAV AGENCIES,61,28.6723606,77.1555729,166
Superstar Enterprises,62,28.8354391,77.1841891,162
MSR TRADERS,63,28.7126367,77.1805084,157
GALAXY INDIA,64,28.6555053,77.2190116,154
SelectionWorld,65,28.691883,77.140291,151
KHUSHI ENTERPRISES,66,28.72138526,77.28099844,147
DREAM HOME PLASTO WARE IND,67,28.786001,77.0411825,144
HALLELU GLOBAL DISTRIBUTION PRIVATE LIMITED,68,28.651782,77.093166,143
PUJVI FASHIONS,69,28.613658,77.0313495,143
GLOBAL FASHION INDUSTRIES,70,28.6288071,77.1319777,142
AMIT KUMAR OJHA,71,28.7328391,77.0816288,138
KRISHNA ENTERPRISES,72,28.6808733,77.0472113,137
BNB ENTERPRISES,73,28.6011719,76.9894232,137
DEL IMPEX PRIVATE LIMITED,74,28.6488967,77.2426213,136
VIHAAN ENTERPRISES,75,28.62848404,77.03281643,136
H N TRADERS,76,28.6479104,77.2380006,135
ELEMENT CART,77,28.7088844,77.0131347,135
Asha traders,78,28.6289835,77.2899697,134
APNAV ENTERPRISES,79,28.652392,77.212367,134
ONS GLOBAL,80,28.719939,77.0612933,133
FAIZAN ENTERPRISES,81,28.69139169,77.26365004,129
awesome digital pvt ltd,82,28.5490668,77.1312743,126
ATS Connect,83,28.4756584,76.8072233,126
RedroomTechnology Private Limited,84,28.6860491,77.003763,123
Kartik Footwear,85,28.6796815,77.0658918,123
MFC RETAILS,86,28.6860624,77.0874065,118
Abhishek enterprises,87,28.619507,77.2821899,117
ARYANVEDA HERBALS,88,28.831825,77.097461,117
KASHVI TRADERS,89,28.6740065,77.1821595,108
R K Enterprises,90,28.5437004,77.2001412,108
ASTEE TRADING,91,28.4957581,77.1606395,106
PMG ENTERPRISES,92,28.612674,77.0566409,105
IMAGINE DESIGN STUDIOS,93,28.6389604,77.2977314,104
EK RETAIL SHOP,94,28.6512236,77.0951319,100
Rahul Kumar,95,28.72140351,77.28098862,100
CHAWLA TRADERS,96,28.6217359,77.0762535,98
OMKAR RAKHI WALE,97,28.7245498,77.2801096,98
GCH INDIA PRIVATE LIMITED,98,28.6430203,77.0463681,98
ICABLE PRIVATE LIMITED,99,28.64145317,77.13385591,98
BLOSSOM KOCHHAR BEAUTY PRODUCTS PVT. LTD.,100,28.5529729,77.2670818,96
SUPERB SELECTIONS INC.,101,28.6464731,77.1169452,96
PIPER LONDON SALES COMPANY,102,28.6784295,77.0523042,95
CREATIVE WORLD,103,28.7886691,77.0593246,94
BADLAAV TRADE INDIA PRIVATE LIMITED,104,28.6209963,77.0018251,93
RAMBLE COSMETICS,105,28.691673,77.18479,92
Dakshya Industries,106,28.6205033,77.0772754,91
pixelfox,107,28.7092295,77.259735,90
UG LIFE STYLE PRIVATE LIMITED,108,28.568372,77.0695528,90
Suman,109,28.624572,77.290535,88
E-FASHION RETAIL,110,28.6548609,77.2911035,88
JBJ IMPEX,111,28.7550848,77.1464026,88
SNB ENTERPRISES PVT LTD,112,28.727675,77.156222,87
BOT RETAILS,113,28.650614,77.0974073,86
INFRONICS TECHNOLOGY CORPORATION,114,28.5792079,77.2582981,86
GURU KIRPA TRADING COMPANY,115,28.6838577,77.13703,85
Ivy Vacker INDIA,116,28.53844,77.142648,85
Ebiz Solutions,117,28.642248,77.295751,84
ICC CHEMTEC PVT LTD,118,28.5031025,77.2023213,83
Vinod handicrafts,119,28.6694663,77.1174192,83
VAPOR SPORTS,120,28.6871664,76.9725642,82
Gyanbindu,121,28.628764,77.2985836,80
LITTLE PROFIT TRADING CO.,122,28.6938994,77.1864869,79
PREETI PRODUCTS,123,28.6414522,77.131351,79
MICRO INDUSTRIAL CORPORATION,124,28.6458491,77.0442183,78
SUPERTRUST MARKETING,125,28.633555,77.281848,77
EKDANTA ENTERPRISES,126,28.671921,77.091516,75
TIME ZONE,127,28.6610779,77.2345881,75
STANFIELD LIFESTYLE,128,28.6579856,77.2315954,74
THE CREATIVE GALLERY,129,28.63094833,77.0539223,72
TAKE CARE,130,28.7026621,77.3099177,71
UE AUTOTECH (I) PRIVATE LIMITED,131,28.674142,77.1675688,71
FAIR OPTICS,132,28.6551132,77.225403,70
DEV INTERNATIONAL-new delhi,133,28.6170667,77.0795727,70
WENZEST,134,28.5465317,77.3046156,69
GK ENTERPRISES,135,28.6426607,77.2842935,68
Suman,136,28.624572,77.290535,67
DARSHINI DESIGNS,137,28.61779879,76.99063129,66
Astrodidi,138,28.7154014,77.0900296,65
SUGANDHI SNUFF KING PVT LTD,139,28.5066415,77.2983333,65
Digital Junction,140,28.722243,77.059825,64
ZAYDN SNEAKERS,141,28.6823217,77.0794779,64
DESI QUEEN INDIA,142,28.6712359,77.122618,63
US TRADERS,143,28.7154005,77.1785849,63
AVTANSH SALES PRIVATE LIMITED,144,28.651782,77.093166,63
HARI OM ENTERPRISES,145,28.6676971,77.1026297,62
S K TRADERS,146,28.5428605,77.2638787,62
MICRO INDUSTRIAL CORPORATION,147,28.681048,77.080864,62
ASHA BADALIA,148,28.676448,77.118155,61
DS ENTERPRISES,149,28.651487,77.187874,61
DEL IMPEX PRIVATE LIMITED,150,28.6488967,77.2426213,60
ADAARA ENTERPRISES,151,28.6412432,77.2454699,60
Maurya Enterprises,152,28.7279373,77.12591,60
KAPILANSH ENTERPRISES,153,28.6803105,77.2565025,60
KING AUTOMOTIVES INTERNATIONAL,154,28.670831,77.109134,59
NUTEX APPAREL LIMITED,155,28.6976761,77.166739,59
LMN CHILD CARE,156,28.7044469,77.3292132,59
RS ENTERPRISES,157,28.6204492,77.0500773,59
Kiran Enterprises,158,28.713823,77.2583419,58
Mass Milestone,159,28.6457718,77.2869988,58
BR ENTERPRISES- Delhi,160,28.5989321,77.0890975,57
SKY E-COMMERCE,161,28.6426607,77.2842935,56
Selfcare Apparels Pvt. Ltd.,162,28.638017,77.305993,56
KAN INTERNATIONAL,163,28.5718499,77.2373557,56
M S FASHION,164,28.6641374,77.2835082,56
J K ENTERPRISES,165,28.711357,77.1559685,56
SAM ENTERPRISES,166,28.689548,77.093139,55
TEERTHANKAAR CHANDRAPRABHU GARMENTS CO.,167,28.6612874,77.2888584,55
MODO WALKER,168,28.7287617,77.2144537,55
Jaddison blue,169,28.5772055,77.0738728,55
Kashish Imitation Jewellery,170,28.6694663,77.1174192,54
Meet Sales,171,28.54959983,77.28947068,53
WET AND DRY PERSONAL CARE PVT LTD,172,28.6497844,77.1464807,53
CHAWLA TRADERS,173,28.6217359,77.0762535,53
SHREE CONSTRUCTIONS,174,28.7233088,77.0835101,53
RAPTECH WORLD,175,28.6848546,77.137371,52
SHUBH UPAHAAR,176,28.5343679,77.2745665,50
AKSHAY PHUL,177,28.6181134,77.0508284,50
B Women,178,28.6276401,77.293647,50
M S Enterprises,179,28.6545368,77.2775103,50
SE TRADING,180,28.6510001,77.1910913,50
KANHAA,181,28.705649,77.2570558,49
MIRACLE MOMS,182,28.6718263,77.2951916,49
SHARMA SALES,183,28.70564441,77.07863241,49
GYAN BOOKS PVT LTD.,184,28.6960377,77.1737499,48
VANI ENTERPRISES,185,28.7077712,77.2867217,48
VISHWAKARMA STORE,186,28.6909153,77.0504045,48
VIPIN GARG,187,28.7572317,77.1424576,48
Miradh Enterprises,188,28.6245815,77.2828969,47
AMPRO,189,28.6483606,77.2058668,47
LONGANI TRADING COMPANY,190,28.7888439,77.0463719,47
AAKRITI GIFT GALLERY (INDIA) PRIVATE LIMITED,191,28.6553906,77.2017169,47
R2 ENTERPRISES,192,28.6613829,77.2025439,47
SAIMANI IMPEX,193,28.6529434,77.1111068,46
M S Enterprises,194,28.6545368,77.2775103,45
GREYGON COSMETICS LLP,195,28.6473481,77.1899028,45
K S TRADERS,196,28.6602692,77.266417,45
PAMPY'S ANGEL FASHION TRADERS,197,28.6591408,77.1496848,45
EAR LOBE AND ACCESSORIES,198,28.7006049,77.2057031,44
Fornax Enterprises,199,28.6289138,77.2733175,44
case king,200,28.6623452,77.1410809,43
K G N ENTERPRISES,201,28.6934713,77.2629242,43
PNP ENTERPRISES,202,28.6688086,77.1924408,42
DIMPY GARMENTS,203,28.6570027,77.2808034,41
iSMART TECHNOLOGY,204,28.6762007,77.3007964,41
JAI MATA DI,205,28.68221455,76.96718839,40
HARE KRISHNA BEST TRADING,206,28.715025,77.257957,40
HMV HERBALS,207,28.7436377,77.193806,39
SMATY CHAMP CREATIONS,208,28.6602864,77.2878383,39
S L ENTERPRISES,209,28.6978046,77.280352,39
AVNI Traders,210,28.6223072,77.135439,39
NEHA ENTERPRISES,211,28.6315168,77.0006016,38
VRITTI CREATION,212,28.5123732,77.2340489,38
AADISHWAR CREATIONS,213,28.479126,77.127569,38
Ishanvi International,214,28.6373039,77.0938021,37
DSM INDIA,215,28.7081035,77.0851471,37
EDDY FASHION PRIVATE LIMITED,216,28.639313,77.311972,37
zemaica healthcare,217,28.6983472,77.0984549,37
UPPAL SONS,218,28.516722,77.2272061,37
B M ASSOCIATES,219,28.5537036,77.2489007,37
Singh Collaction,220,28.5302623,77.2695401,37
SHAGUN E-MART,221,28.798011,77.127334,36
US TRADERS,222,28.7154005,77.1785849,36
WARTO BUSINESS SOLUTIONS,223,28.680687,77.3302888,36
HR FASHIONS,224,28.5355008,77.2631232,36
LMN CHILD CARE,225,28.7044469,77.3292132,35
Anita Creations,226,28.5148121,77.2285391,35
KOHLI BULLET ACCESSORIES,227,28.6486731,77.1981862,35
SHRI BALAJI ENTERPRISES,228,28.6908184,77.2614061,35
DR MOREPEN LIMITED,229,28.7368231,77.1490803,35
S A REAL WALLET,230,28.6524229,77.2139292,35
FOONTY.COM,231,28.6148842,77.0959269,35
SHRI BALA JI RETAIL,232,28.6814462,76.9646161,35
TARUN ENTERPRISES,233,28.660156,77.1496787,34
VINAYAK ENTERPRISES,234,28.6581161,77.1797896,34
S.P.M TRADERS_Mundka_SP-2-VOI,235,28.6242757,77.0634705,33
MEDSOURCE OZONE BIOMEDICALS PRIVATE LIMITED,236,28.5547863,77.2488027,33
ANKITA ENTERPRISES,237,28.7457653,77.107534,33
Ruhani Fashion_Kunda_VL-VOI,238,28.6249263,77.1108882,33
VIHAAN INC,239,28.68115196,77.03607888,33
4IN 1 INFOTECH,240,28.62227682,76.99720417,33
DISHA ENTERPRISES,241,28.5978237,77.2950854,33
MAHARAJA SHOES-Rajouri Garden Delhi,242,28.6656862,77.1192014,33
LEHAR WEBSTORE PRIVATE LIMITED,243,28.5858475,77.242998,33
Mu Enterprises,244,28.7025689,77.2973102,32
M/S V V FOOTWEARS,245,28.682572,77.0790918,32
SANCHIT PACKAGING,246,28.67898,77.06927,31
FUTURISTIC TECHNOLOGY CORPORATION,247,28.4939715,77.1788569,31
Pollux Enterprises,248,28.6322351,77.2743712,31
H N TRADERS,249,28.6479104,77.2380006,30
M K Enterprises,250,28.7017684,77.3202521,30
GARG STORE,251,28.6740384,77.1851807,30
AROMA FOOTWEAR,252,28.668575,77.1421652,30
LALISA ENTERPRISES,253,28.7009403,77.2721047,29
THE FASHION CLUB,254,28.5609483,77.0441231,29
AGATH HOLDINGS,255,28.6079404,77.0482386,29
M. M. Traders,256,28.667432,77.0565169,29
VERMILION COSMETICS PRIVATE LIMITED,257,28.7583591,77.1616106,29
SHRI CREATION,258,28.6248596,77.1108681,29
PARVEEN KANSAL (HUF),259,28.5994667,77.2940286,29
GLOBAL TRADE LINKS,260,28.640654,77.1305593,29
ETRONICWORLD,261,28.6624953,77.146116,28
ELEEGANCE BAGS PRIVATE LIMITED,262,28.6530966,77.2135187,28
R S Enterprise,263,28.75945617,77.12489793,28
NEVYA TRADING COMPANY,264,28.7229097,77.0798071,28
JUMBO DISTRIBUTORS,265,28.673615,77.3111884,27
U.K.TRADERS,266,28.6238693,77.2801139,27
KOMSAN ENTERPRISES,267,28.6256227,77.2932024,27
RUDRAKSH INTERNATIONAL,268,28.6805236,77.2894854,27
BALAJI ENTERPRISES,269,28.7117215,77.0859687,27
GUPTA TRADING CO.,270,28.4957581,77.1606395,26
P.R. ENTERPRISES,271,28.6999815,77.1643337,26
RAJEEV KHANNA,272,28.5744895,77.2280611,26
ARANGERS RETAIL INDIA PRIVATE LIMITED,273,28.6481007,77.2745522,25
Nice Deal Enterprises Pvt. Ltd.,274,28.6283625,77.2786469,25
MIESTILO LIFESTYLE PRIVATE LIMITED,275,28.700665,77.268288,25
BS Trading Co.,276,28.4985168,77.1910012,25
INFINITY E VENTURES,277,28.7875919,77.0688588,25
UPPER CIRCUIT TRADING LLP,278,28.7494933,77.1183612,25
COMMERCE FOREVER,279,28.605949,77.0474364,25
Rivansh Trading Company,280,28.6668905,77.0610058,24
S S IMPEX,281,28.58916,77.30214,24
ASG,282,28.6368165,77.2274611,24
UNIRISE ENTERPRISES (OPC) PRIVATE LIMITED,283,28.7123705,77.0812466,24
NIRMAN ENTERPRISES,284,28.6349504,77.322912,23
GURU NANAK GENERAL STORE,285,28.6681891,77.2905637,23
KATARIA BELT HOUSE,286,28.6585105,77.2127305,23
ETEX HEALTHCARE PRIVATE LIMITED,287,28.5077961,77.2311749,23
AFFILIATEVIA ONLINE MEDIA PRIVATE LIMITED,288,28.6013577,77.0382005,23
U.K.TRADERS,289,28.6238693,77.2801139,23
Leather Line,290,28.5068803,77.1852156,22
NITIKA APPARELS,291,28.704409,77.3268833,22
viraj telecom,292,28.7324156,77.1442612,22
Dream Sellers,293,28.6379839,77.2034441,22
VOGUE HAIR ACCESSORIES,294,28.519025,77.2289959,22
I C COSMO (INDIA),295,28.560257,77.1617358,21
N H TRADERS,296,28.661286,77.205991,21
MAXX AND NAD CARE PRIVATE LIMITED,297,28.7528749,77.1380131,21
GCH INDIA PRIVATE LIMITED,298,28.6430203,77.0463681,21
VENUS MINI BAZAR,299,28.5657339,77.1657055,21
RIDDHI CREATIONS,300,28.5054638,77.2782213,21
NIRMAN ENTERPRISES,301,28.6349504,77.322912,21
KSB ENTERPRISES,302,28.67703859,77.15542455,21
S.S.S. ENTERPRISE,303,28.7183257,77.1772037,21
USHA ELECTRICALS,304,28.667216,77.285709,20
Ruchi & Sons Enterprises,305,28.6679084,77.1902732,20
RAJAN BATARA,306,28.689477,77.1754088,20
SS FASHIONS,307,28.5503314,77.2501893,20
NUTEX KNIT FAB,308,28.69787101,77.16276979,20
Hum Tum cosmetics,309,28.6284551,77.2897197,20
WOMENSKY,310,28.5652864,77.1617654,20
AFFILIATE SERVICE PROVIDER.IN,311,28.6779356,77.1664019,20
DKG Retails,312,28.6989869,77.1288315,20
Shoe cloud,313,28.6725527,77.124772,20
Vinod Kumar & Co.,314,28.816042,77.1419835,20
VAYU EDUCATION OF INDIA,315,28.641012,77.246047,20
PAPER AND PEN INDIA,316,28.7067259,77.1711633,20
VIAN INTERNATIONAL-Delhi,317,28.7191961,77.1006616,20
GULIKA APPAREL PRIVATE LIMITED,318,28.7065991,77.1395384,20
SOAMI IMPEX,319,28.6512236,77.0951319,20
ARADHYA ENTERPRISES,320,28.6897741,77.0577702,20
ASHISH ENTERPRISES,321,28.5772055,77.0738728,20
A to Z Solutions,322,28.6602692,77.266417,20
B H TRADERS,323,28.4994871,77.1899766,20
MR. LAMP & LIGHTS,324,28.687027,77.26055,20
Melange Asia Global Pvt Ltd,325,28.525303,77.2831867,20
SHRINO,326,28.7156702,77.277957,20
KOPILA,327,28.6253512,77.2065892,20
BERG ELECTRONICS,328,28.4903558,77.1792009,19
QBIC REALTECH SERVICES PRIVATE LIMITED,329,28.7934719,77.0544737,19
KIFAYATI MARKET,330,28.569244,77.28306,19
KIFAYATI MARKET,331,28.569244,77.28306,19
Portronics Digital Pvt. Ltd.,332,28.70316267,77.17055434,19
A S TRADERS,333,28.6306702,77.0454123,19
TNW INTERNATIONAL PRIVATE LIMITED,334,28.6981304,77.1665111,19
PIKKME,335,28.6191389,77.0128315,18
SHIV MEDICOS,336,28.6742078,77.0917623,18
AUGGMIN LIFESCIENCES. PRIVATE LIMITED,337,28.6175988,77.0293582,18
GLITTERING STARS,338,28.6328085,77.0582453,18
SHRINO,339,28.7156702,77.277957,18
Himanshi Enterprises,340,28.749255,77.1864741,18
JIYA ENTERPRISES,341,28.6596659,77.179387,18
SHREE RAM TRADING CO,342,28.6505981,77.2873205,18
DIGITAL SOLUTION,343,28.6701682,77.291156,18
MEHAR INTERNATIONAL,344,28.6204148,77.1175312,18
INNOVENT ECOM LLP,345,28.68239,77.03034,18
HEALTH AYURVEDA,346,28.6983472,77.0984549,18
FAIZAN ENTERPRISES,347,28.69139169,77.26365004,18
TRINITY ENTERPRISES,348,28.559813,77.20055,18
ONUS MARKETING,349,28.6902182,77.1565228,17
Friends Fashion Style,350,28.7176004,77.269243,17
DEVESH AHUJA,351,28.7040034,77.3077284,17
HINDUSTAN HERBAL,352,28.701055,77.1289214,17
MARUTI NANDAN TRADING,353,28.7330537,77.2617267,17
MUSKUN ENTERPRISES,354,28.6240663,77.0322826,17
CLOTHONICS,355,28.6648134,77.2939641,17
M.TUNES,356,28.6348078,77.2705547,17
OMR Fashion,357,28.6908908,77.0730942,16
VACHI CREATIONS,358,28.721119,77.101949,16
ECHOBIRD ELECTRONICS LLP,359,28.6138769,77.1069187,16
MAHI ENTERPRISES,360,28.6538193,77.2652148,16
VANDANA ENTERPRISES,361,28.6476963,77.2881119,16
HARITU TRADING PRIVATE LIMITED,362,28.6211385,77.0000336,16
KOMSAN ENTERPRISES,363,28.6256227,77.2932024,16
Pihu Singh,364,28.6250411,77.2915868,16
AANCHAL INTERNATIONAL,365,28.4997018,77.1887827,16
VISCASO COLLECTION,366,28.5537036,77.2489007,16
FOX BURNOUT ENTERPRISES,367,28.6814462,76.9646161,16
VS RETAILER,368,28.6223013,77.031205,16
S A Enterprises,369,28.6570737,77.1833314,16
CIELKART,370,28.4909984,77.1790708,16
S R ENTERPRISES,371,28.6156621,77.2855628,16
FB GROUP OF COMPANY,372,28.569244,77.28306,16
EVER SHINE GROUP COMPANY,373,28.6253132,77.2805917,15
K.S.STEEL,374,28.7012893,77.1644541,15
LEMOIZY TRADING PRIVATE LIMITED,375,28.7171158,77.1048953,15
Net Retail,376,28.6833529,77.2617344,15
JIYO FASHION HUB,377,28.6645766,77.2578047,15
MHM Trading Co.,378,28.6525946,77.1634019,15
TELEONE CONSUMERS PRODUCT PRIVATE LIMITED,379,28.69845948,77.128962,15
PURE LIFE SOLUTIONS,380,28.6342061,77.041753,15
NEW INDIA INC,381,28.50371118,77.24310236,15
AVINS STORE,382,28.7203701,77.271705,15
B Boy Body wears,383,28.6484016,77.144337,15
MEERA TRADERS,384,28.6249918,77.2915918,15
MEHRA COMMUNICATION,385,28.6551476,77.0973368,15
KAKU FANCY DRESSES,386,28.5800093,77.252666,15
AHL MOTOR,387,28.6483218,77.1987215,15
GN Traders,388,28.7729817,76.9664115,15
Pearl Electronics,389,28.6886902,77.1748218,15
DRB FOODS PVT. LTD,390,28.5283459,77.2751502,15
SHOPPER'S PARADISE,391,28.6491347,77.1251684,14
F n Me,392,28.6639086,77.1102449,14
Arora Traders,393,28.6569035,77.2822923,14
SAANVI INDUSTRY,394,28.6837185,77.0472914,14
DUNCANS TEA LIMITED,395,28.7457653,77.107534,14
Aman Chawla,396,28.6378732,77.306393,14
M/s Lovelook Skin Science,397,28.5054674,77.2318174,14
Cliq India Service,398,28.6648134,77.2939641,14
Sai Books International,399,28.7694259,77.1862883,14
Deemark Healthcare Pvt Ltd.,400,28.7001656,77.1271236,14
GUPTA AYURVEDIC STORE,401,28.678552,77.160804,14
RAMESH PUBLISHING HOUSE,402,28.6504809,77.2438548,14
KOHLI BULLET ACCESSORIES,403,28.6486731,77.1981862,14
H D MART,404,28.615369,77.0451237,14
ST CREATION,405,28.7476976,77.1792914,14
VNR INDIA,406,28.7012893,77.1644541,14
ACRON INCORPORATION,407,28.6725912,77.1752169,14
J.S.ENTERPRISES,408,28.625722,77.2945194,14
SOHMITA ENTERPRISES,409,28.6710041,77.1181339,14
3BROTHERS ASSOCIATES,410,28.6727383,77.2750638,13
PIHU TRADING COMPANY,411,28.6909153,77.0504045,13
Conscious Retail,412,28.701894,77.138025,13
A R ENTERPRISES,413,28.6993137,77.1680139,13
Home Candy,414,28.5335143,77.2219509,13
RIYOSS ENTERPRISES,415,28.6175988,77.0293582,13
Labhta,416,28.6606551,77.1422266,13
Amaraj,417,28.6492049,77.2865332,13
A to Z Solutions,418,28.6602692,77.266417,13
FARM STAR PRODUCTS,419,28.5288876,76.954584,13
Krishna Trading Co.,420,28.7178203,77.0839666,13
SOM SONS,421,28.6499181,77.1350034,12
Madhav Fashion,422,28.5541424,77.1771323,12
BHOOP SINGH SONS E-COMMERCE PRIVATE LIMITED,423,28.6961368,77.1004454,12
COUTUME COLLECTIONS,424,28.6328554,77.0412958,12
S K TRADERS,425,28.6694118,77.287496,12
JAGRITI ENTERPRISES,426,28.6505489,77.0986819,12
MANYA ENTERPRISES,427,28.4740054,77.1345276,12
CONNEDIT BUSINESS SOLUTIONS PRIVATE LIMITED,428,28.7079624,77.1170333,12
RADHEY SHYAM ENTERPRISES,429,28.6890439,77.2991416,12
LIFE LIKE,430,28.714869,77.115484,12
B Boy Body wears,431,28.6484016,77.144337,12
NIINE PRIVATE LIMITED,432,28.8106372,77.1431858,12
RNB TRADERS,433,28.62471348,77.05395745,12
BABY & MOM RETAIL PRIVATE LIMITED,434,28.6155587,76.9963134,12
RUPA PUBLICATIONS INDIA PVT LTD,435,28.6408583,77.245494,12
TN COMPUTERS,436,28.6855785,77.268474,11
NITRA ENTERPRISES,437,28.6340772,77.0169554,11
Ruhani Fashion_Kunda_VL-VOI,438,28.6249263,77.1108882,11
MAHI ENTERPRISES,439,28.6538193,77.2652148,11
Cosmo Enterprises,440,28.4925176,77.1802976,11
Anita Creations,441,28.5148121,77.2285391,11
BHAWNA TRADERS,442,28.6913268,77.2939839,11
YOUR CHOICE COLLECTION,443,28.7361717,77.1967213,11
Amtas Retail LLP,444,28.5717203,77.2388399,11
DEVINE CRAFT,445,28.6396191,77.0688102,11
ZEHRA ENTERPRISES,446,28.6563683,77.2214745,11
REGULARWANTS PRIVATE LIMITED,447,28.5994667,77.2940286,11
HMEPHURIA ENTERPRISES,448,28.6408544,77.245522,11
emagicbiz,449,28.6417002,77.1224529,11
HVM NETWORK PRIVATE LIMITED,450,28.5491766,77.213918,10
VISHWAKARMA INDUSTRIES,451,28.6323666,77.04997,10
CHERRY ENTERPRISES,452,28.7012389,77.1296068,10
OZONE PHARMACEUTICALS LTD,453,28.6206321,77.0788152,10
VERMA TRADERS,454,28.57750464,77.04702909,10
IRA COLLECTIONS,455,28.6328554,77.0412958,10
AYNTA DREAM,456,28.4633209,77.1519254,10
SHIVA TRADERS-Delhi,457,28.6504357,77.288591,10
BHAWNA TRADERS,458,28.6913268,77.2939839,10
SMS MULTITECH INDIA PVT LTD,459,28.5291796,77.2786213,10
DR SHOPCART PRIVATE LIMITED,460,28.5857891,77.0712346,10
Bluemart,461,28.4936527,77.2302543,10
A ONE TRADERS,462,28.5888951,77.2534096,10
Amaraj,463,28.6492049,77.2865332,10
TS CREATIONS,464,28.7480699,77.1827502,10
stylish jewels,465,28.6249153,77.1108911,10
ROBIN ROMEO,466,28.6626009,77.283702,10
N K ENTERPRISES,467,28.5298783,77.2627717,10
GULMOHAR FABRIC,468,28.6297696,77.3198362,10
GREENLAND FASHION,469,28.7156646,77.0885719,10
SIDDARSH INTERNATIONAL,470,28.5355069,77.1228536,10
aadrika.com,471,28.5574389,77.2516509,10
RAVI KUMAR GUPTA HUF,472,28.6110893,77.0587905,10
I N MEHRA INDUSTRIES,473,28.6470393,77.0231034,9
R G BIOCOSMETIC PRIVATE LIMTED,474,28.52197216,77.27459977,9
DHA AYURVEDA,475,28.7435598,77.1964778,9
A TO Z DISTRIBUTOR,476,28.602942,77.332877,9
Shubhangi Enterprises,477,28.6506511,77.2898937,9
SIRONA HYGIENE PRIVATE LIMITED,478,28.49742,77.1456573,9
PINKY PARI,479,28.6461308,77.2830044,9
SK BHARAT GROUP,480,28.7203026,77.1583348,9
GUPTA TRADING CO.,481,28.51885456,77.17485828,9
Cliq India Service,482,28.6648134,77.2939641,9
SHIV ENTERPRISES,483,28.6758565,77.1593012,9
SKV Enterprises,484,28.6521213,77.1546279,9
SANCHIT PACKAGING,485,28.67898,77.06927,9
SMARTY TWOMAX BABY CARE,486,28.6591408,77.1496848,9
INCIRCO VENTURES LLP,487,28.5940809,77.0927127,9
AFZAL ENTERPRISES,488,28.6873832,77.2624359,9
INDIAN AUTO SUPPLY (REGD.),489,28.6530033,77.2313176,9
AMMU ENTERPRISES,490,28.6967948,77.0643614,9
RUNSI INTERNATIONAL,491,28.54480093,77.29732481,9
TURFY PRIVATE LIMITED,492,28.6297242,77.3034606,9
PINNACLE AVENUE,493,28.6241756,77.0367016,9
EVIZO E-COMMERCE PRIVATE LIMITED,494,28.6716072,77.281089,9
RIDDHI CREATIONS,495,28.5054638,77.2782213,9
Get Glamr,496,28.5572055,77.2250282,9
NITESH JAIN HUF,497,28.6839426,77.04997,9
KUNJ INTERNATIONAL,498,28.5418105,77.1226816,9
STAR IMPEX INTERNATIONAL LLP,499,28.6363945,77.2714051,9
CREATIVE PRINT SOLUTION,500,28.5245577,77.2793059,8
MR. LAMP & LIGHTS,501,28.687027,77.26055,8
CRUX Enterprises,502,28.6289652,77.2736718,8
AK ACCESSORIES,503,28.6796016,77.2800782,8
KDS ENTERPRISES,504,28.6919794,77.2611986,8
METIS EDUVENTURES PVT. LTD.,505,28.623511,77.3365157,8
MONTAGE SALES PRIVATE LIMITED,506,28.674667,77.305902,8
WELD AND GRIND ENGINEERS,507,28.5420222,77.2584088,8
BARTAN HUB,508,28.5411167,77.1953109,8
CRAFTIAL CURVE LLP,509,28.6235791,77.2845386,8
Veenu Enterprises,510,28.5194752,77.2840188,8
BARODA HERBALS PRIVATE LIMITED,511,28.6057714,77.0568115,8
SWISS MILITARY LIFESTYLE PRODUCTS P LTD,512,28.54242583,77.04646839,8
Ferns N Petals Pvt Ltd,513,28.4799213,77.1636979,8
DIVYA VEDIC SANSTHAN OPC PRIVATE LIMITED,514,28.690678,77.055894,8
KOLORATE LLP,515,28.6490083,77.193901,8
BLACK PEPPER MARKETING PRIVATE LIMITED,516,28.6620146,77.1471232,8
KESHAV KRAFT,517,28.6127304,77.0725032,8
Sai Books International,518,28.7694259,77.1862883,8
SHREE SALASAR OVERSEAS,519,28.7979915,77.0521289,8
ZYTEL ENTERPRISES PRIVATE LIMITED,520,28.5361754,77.2705796,8
Aadvik Foods & Products Pvt. Ltd.,521,28.6337103,77.2520998,8
KRASA TRADERS,522,28.6836746,77.1332094,8
SIMMTRONICS INFOTECH PVT LTD,523,28.5485541,77.253244,8
AUTHENTIC WOMEN'S WEAR,524,28.6270786,77.2907142,8
R R ENTERPRISES,525,28.6755374,77.1840167,8
M J BAGS,526,28.6481328,77.2132145,8
SYSCOM ORGANIC WORLD PRIVATE LIMITED,527,28.7175417,77.0966012,8
DR BNTOM LABS PVT LTD,528,28.664522,77.194864,8
e Data ventures Private Limited,529,28.5709904,77.0718408,8
ODDWAY ICARE PRIVATE LIMITED,530,28.6450912,77.244864,7
VARDHMAN ENTERPRISES,531,28.691834,77.3044929,7
TAIL MART ENTERPRISES,532,28.6339175,77.0383776,7
MI FASHION,533,28.5779793,77.0486787,7
LN ENTERPRISES,534,28.6062412,77.1039482,7
JAI MATA DI TRADERS,535,28.6254813,77.0633352,7
SHOPPERSKART,536,28.6252381,77.1030584,7
PR ENTERPRISES,537,28.7121245,77.2813195,7
LOVE ENTERPRISES,538,28.625974,77.101169,7
Yash International,539,28.6760004,77.1612315,7
SONICS SECURITY SYSTEM,540,28.551308,77.2687564,7
ACCESSORIO,541,28.6578518,77.3076573,7
BLUE PIXEL PRODUCTS,542,28.6285893,77.3096572,7
URBUN REVAAZ,543,28.7638211,77.1744195,7
KUMKUM TRADING COMPANY,544,28.6674165,77.0549783,7
RITZKART,545,28.6835346,77.1333924,7
Gems & Jelley's,546,28.6801184,77.1951892,7
BEST FASHION TRADER,547,28.6456402,77.2127281,7
BALAJI DURGA PRASAD ENTERPRISE,548,28.650497,77.16597,7
I C COSMO (INDIA),549,28.560257,77.1617358,7
PR ENTERPRISES,550,28.7121245,77.2813195,7
Gauranga Sales,551,28.7362221,77.0579839,7
JOY PLANET,552,28.7478006,77.1312699,7
SHIVAM ACRYLIC PRODUCTS,553,28.6774445,77.1791676,7
Spring Art Creations,554,28.711347,77.100259,7
HARITU TRADING PRIVATE LIMITED,555,28.6211385,77.0000336,7
BEAUTY MAKER,556,28.6346045,77.040182,7
EKAM ENTERPRISES,557,28.6510001,77.1910913,7
bookstock,558,28.622422,77.2987524,7
Yaaribazaar.com,559,28.59515,77.0690437,7
ZAZZ TECHNOLOGY CONNECT PRIVATE LIMITED,560,28.5269975,77.2753744,7
S R ENTERPRISES,561,28.6156621,77.2855628,7
Hd Enterprises,562,28.6228446,77.028857,7
Blue Kite Events & Promotions,563,28.6269869,77.016405,7
PIHU INDUSTRIES,564,28.5021432,77.3241307,7
BUTTERFLIES BAG PRIVATE LIMITED,565,28.6312933,77.1355728,7
DHANN OVERSEAS,566,28.674201,77.308196,7
JOLEY POLEY,567,28.6624787,77.26696,7
NORTH ENGINEERING,568,28.6708391,77.1815017,7
DEVYOG SOLUTIONS PVT LTD,569,28.5219614,77.2818966,7
NANZ MED SCIENCE PHARMA PRIVATE LIMITED,570,28.6313014,77.1355732,7
INDUREN INTERNATIONAL PRIVATE LIMITED,571,28.6668353,77.1178781,7
HARPA RETAIL PVT. LTD.,572,28.5000213,77.2882046,7
S R ENTERPRISES,573,28.6084573,77.0899425,7
KINGER ELECTRONICS,574,28.5240107,77.2791376,7
PRINCE FASHION,575,28.5942,77.081,6
FUSE FITNESS GURU PRIVATE LIMITED,576,28.5895371,77.076825,6
MEERA TRADERS,577,28.6249918,77.2915918,6
A TO Z DISTRIBUTOR,578,28.602942,77.332877,6
SCALE POLESTAR INDIA PRIVATE LIMITED,579,28.5370996,77.2759285,6
SHREE SALASAR OVERSEAS,580,28.7979915,77.0521289,6
Shoppertree Online Marketing Pvt Ltd,581,28.6653817,77.2588134,6
MAURYA ENTERPRISES,582,28.7472908,77.2469813,6
PBROS ENTERPRISES PRIVATE LIMITED,583,28.5378546,77.2075942,6
BANSAL HANDICRAFTS,584,28.6878862,77.2796913,6
COMMERCE FOREVER,585,28.605949,77.0474364,6
Seema Arora,586,28.737386,77.1231682,6
SALLY ENTERPRISES,587,28.6796206,77.1837319,6
BROADSTAR RETAIL NET,588,28.5541424,77.1771323,6
SAVING MART,589,28.678596,77.267525,6
CHAWLA TRADERS,590,28.6217359,77.0762535,6
KAY TENT INDUSTRIES,591,28.6243546,77.1250105,6
eBizMour Global Trade,592,28.6416758,77.1123899,6
PURPLE UNITED SALES PRIVATE LIMITED,593,28.6817668,77.0907027,6
A R ENTERPRISES,594,28.6993137,77.1680139,6
MEDIWAYS SURGICAL,595,28.7391996,77.1910545,6
DREAMLAND PUBLICATIONS,596,28.6516131,77.1378588,6
A.R. SILK HANDLOOM,597,28.649159,77.227465,6
HIRO TRADERS,598,28.7001862,77.2734617,6
SHOBHIT VENTURES,599,28.634709,77.2846158,6
SAI ENTERPRISES,600,28.648876,77.1096829,6
LUCKY MANILA ENTERPRISES,601,28.6199109,77.0325279,6
PYRAMID FASHIONS,602,28.6999815,77.1643337,6
Zaffre Collections,603,28.6352454,77.1174826,6
Xcilos,604,28.6634765,77.1434606,6
GLITTERING STARS,605,28.6328085,77.0582453,6
3BROTHERS ASSOCIATES,606,28.6727383,77.2750638,6
Sharda Alliance,607,28.5342332,77.2094473,6
SHREE KRISHNA ENTERPRISES,608,28.707685,77.083217,6
LOVE ENTERPRISES,609,28.625974,77.101169,6
SUDARSHAN ENTERPRISES,610,28.6508419,77.2240495,6
JPJ Offshores Private Limited,611,28.704033,77.1558419,6
SACHIDANAND TRADING CO,612,28.643915,77.070017,6
LA GRANDE (P) LTD,613,28.6926457,77.1581907,6
AFZAL ENTERPRISES,614,28.6873832,77.2624359,6
VISHU TRADERS,615,28.6281561,77.0149901,6
Shoppertree Online Marketing Pvt Ltd,616,28.6653817,77.2588134,6
LILPICKS,617,28.687538,77.1384182,6
Edit Look,618,28.6367404,77.0286609,6
GAURAV ASSOCIATES,619,28.6363269,77.2872084,5
MARWARI ENTERPRISES,620,28.6275609,77.2784081,5
PARAS TRADERS,621,28.7146109,77.0852969,5
Mohit Kumar Gupta,622,28.6147804,77.2776579,5
Friends Fashion Style,623,28.7176004,77.269243,5
GALAXY IMPEX,624,28.6964967,77.1250482,5
COSMO TRADING CO,625,28.65092529,77.10070165,5
MOSAIC HOUSEWARE PVT LTD,626,28.7904614,77.0609149,5
DISHA ELEKTRONICS,627,28.63306,77.08672,5
GULIKA APPAREL PRIVATE LIMITED,628,28.7065991,77.1395384,5
Reposey International,629,28.6909465,77.0719608,5
MAAHI DESIGNS,630,28.6461851,77.0529193,5
PRATHAM OVERSEAS,631,28.6708446,77.0748115,5
UNNATI SEVA TRUST,632,28.6156621,77.2855628,5
Gutthi Enterprises,633,28.53704,77.2668579,5
INVENTIVA LABS PVT LTD,634,28.536963,77.271452,5
CRAFTIAL CURVE LLP,635,28.6235791,77.2845386,5
RAM LAL INDER LAL PVT. LTD.,636,28.6323386,77.2167326,5
RapchykDeals eCom Trade,637,28.6417002,77.1224529,5
Y.W.P. FASHION,638,28.7189081,77.2723152,5
KAPIL TIMES,639,28.6477548,77.2747759,5
KITTYFI TRADERS,640,28.6809157,77.320475,5
NITSCO HOMECARE PRODUCTS CORPORATION,641,28.5984715,77.0832522,5
Yash International,642,28.6760004,77.1612315,5
be billionaire enterprises by guri ji,643,28.6975913,77.120655,5
KRISHNA TRADERS,644,28.5860795,77.0486423,5
STYLE STONE LLP,645,28.6278399,77.1239371,5
BELIVE-ME OVERSEAS,646,28.6382879,77.0773694,5
N K ENTERPRISES,647,28.5298783,77.2627717,5
PRISER INTERNATIONAL,648,28.6344395,77.0371182,5
GLOBAL IMPEX,649,28.6708205,77.1672845,5
CREATIONS OF INNOVATION,650,28.6591408,77.1496848,5
PENZ SOLUTIONS,651,28.5047261,77.2280653,5
PURNIMA ENTERPRISES,652,28.5263229,77.2554366,5
GIFT MY PASSION,653,28.6199527,77.0383564,5
DIVYA VEDIC SANSTHAN OPC PRIVATE LIMITED,654,28.690678,77.055894,5
JINDAL TRADING CO.,655,28.706135,77.1221108,5
TRINETRA SALES,656,28.6756595,77.0896706,5
SELECTION HUB,657,28.7009192,77.1115351,5
PUKU TRADERS,658,28.6958555,77.0776213,5
TRENDOCART,659,28.5721737,77.2742902,5
R D ENTERPRISES,660,28.6783956,77.0900456,5
BARAN INTERNATIONAL,661,28.6689402,77.1230287,5
PRIYAL ENTERPRISES,662,28.615025,77.0562082,5
YOUR CHOICE COLLECTION,663,28.7361717,77.1967213,4
HINDUSTAN HERBAL,664,28.701055,77.1289214,4
MODEL GARMENTS,665,28.649452,77.1842312,4
NEHA ENTERPRISES,666,28.6315168,77.0006016,4
V S TRADING,667,28.6682536,77.0871016,4
KUMKUM TRADING COMPANY,668,28.6674165,77.0549783,4
UNDERME BRANDS PRIVATE LIMITED,669,28.523376,77.194369,4
SHREY NUTRACEUTICALS & HERBALS PVT. LTD,670,28.526322,77.25432,4
R K Enterprises,671,28.62263,77.136679,4
Moksha Enterprises,672,28.6527747,77.1943349,4
PRAUME LIFESTYLE PRIVATE LIMITED,673,28.6126199,77.0775795,4
KESHAV KRAFT,674,28.6127304,77.0725032,4
RAMESH PUBLISHING HOUSE,675,28.6504809,77.2438548,4
TORETO RETAIL PRIVATE LIMITED,676,28.7780513,77.1440475,4
SHOPPERS WORLD,677,28.7465928,77.2037802,4
ANKII FASHION WEARS,678,28.7324512,77.1576519,4
SG Retail,679,28.6331422,77.2805627,4
BANUCHI FASHIONS,680,28.6561322,77.1043559,4
DREAMLAND PUBLICATIONS,681,28.6516131,77.1378588,4
BIZARRE VOGUE,682,28.6160302,77.0543129,4
VENUS MINI BAZAR,683,28.5657339,77.1657055,4
U S HEALTH PRODUCTS,684,28.5460829,77.1288399,4
SHOE STUDIO,685,28.7020006,77.0422002,4
DIVYASHRI WELLNESS,686,28.7153524,77.1088077,4
LEMOIZY TRADING PRIVATE LIMITED,687,28.7171158,77.1048953,4
DEZIRE FASHION,688,28.705943,77.261964,4
AFFILIATE SERVICE PROVIDER.IN,689,28.6779356,77.1664019,4
BEST FASHION TRADER,690,28.6456402,77.2127281,4
Pushpom Enterprises,691,28.5234393,77.2077049,4
Deepika Agencies,692,28.6802278,77.0136108,4
DRB FOODS PVT. LTD,693,28.5283459,77.2751502,4
MESHA INTERNATIONAL,694,28.8308717,77.1030782,4
PC INFOTECH,695,28.7416353,77.2035293,4
AARUSHIKA MERCHANDISE,696,28.502332,77.2529137,4
Pearl Electronics,697,28.6886902,77.1748218,4
Shubhangi Enterprises,698,28.6506511,77.2898937,4
MAKE MY SPECS,699,28.6347627,77.1194127,4
TOUCHSTONE TELESERVICES PRIVATE LIMITED,700,28.6837743,76.9886534,4
RITZ ACCESSORIES,701,28.700794,77.2078656,4
RAHMAN CREATIONS,702,28.5320401,77.3091084,4
GD INDIA,703,28.7272096,77.2769379,4
TTN INTERNATIONAL,704,28.6980935,77.1676052,4
LIFE LIKE,705,28.714869,77.115484,4
pluto fit,706,28.5344139,77.2612104,4
PPH FASHION,707,28.5673735,77.1633677,4
VANDANA KAUSHAL,708,28.6626568,77.2657038,4
YASH GARMENTS,709,28.6612981,77.2643474,4
WE CARE,710,28.624646,77.2986963,4
SARVAGUNAUSHDHI PRIVATE LIMITED,711,28.6881618,77.1316358,4
SPEEDEX FASHIONS,712,28.6468266,77.2153664,4
Shinaya Enterprises,713,28.5657339,77.1657055,4
RADIOHMS AGENCIES,714,28.5352281,77.2745876,4
M N SHOPPING GALLERY,715,28.6482185,77.2127523,4
NABIYA ENTERPRISES,716,28.6876467,77.2610522,4
stylish jewels,717,28.6249153,77.1108911,4
PALAK.K ENTERPRISES,718,28.6624523,77.1461077,4
Avilisto,719,28.63358,77.111084,4
Shiv Enterprises,720,28.6721246,77.1204713,4
EPIC BRANDS PRIVATE LIMITED,721,28.533954,77.269167,4
SUPARSHVA SWABS I,722,28.6783956,77.0900456,4
DR 3M TRADELINKS PRIVATE LIMITED,723,28.6198826,77.061741,4
eComKaaj Global Trade,724,28.647431,77.1198208,4
SKV Enterprises,725,28.6521213,77.1546279,4
HOME SECURE PESTOBIRD SERVICES PRIVATE LIMITED,726,28.7258163,77.1610985,4
RETAIL GRAPPLE,727,28.6120281,77.069757,4
PRICELESS COLLECTIONS,728,28.6102301,76.9818511,4
UNIQUE BOOKS INTERNATIONAL,729,28.538863,77.2721654,4
Aasma Creatives,730,28.6630801,77.2684597,4
SRG ENTERPRISES,731,28.6319004,77.1338781,4
SHEOPALS PRIVATE LIMITED,732,28.5358498,77.2610146,4
VN ENTERPRISES,733,28.6570059,77.183007,4
SANAV CREATIONS PVT.LTD.,734,28.6307098,77.1354311,4
VIYA ENTERPRISES,735,28.7059846,77.1939763,4
SHAURYA LOVE,736,28.690448,77.256064,4
Lakshita Enterprises,737,28.679778,77.183696,4
Friends N Company,738,28.5895996,77.3078198,3
FASENSE LIFESTYLE (P) LTD,739,28.4944273,77.3123051,3
Welvaart Trading Pvt. Ltd,740,28.4669989,77.1510561,3
Anshi Genius Store,741,28.5495137,77.2931084,3
AMIT MITTAL,742,28.6882239,77.1337368,3
Cheenu Garments,743,28.659963,77.2873928,3
BUTTERFLIES BAG PRIVATE LIMITED,744,28.6312933,77.1355728,3
D.S.ENTERPRISES,745,28.7538028,77.2052334,3
Veenu Enterprises,746,28.5194752,77.2840188,3
RIYOSS ENTERPRISES,747,28.6175988,77.0293582,3
Texcoco enterprises,748,28.7025293,77.1977228,3
J D  CREATION,749,28.660577,77.260527,3
NATURE ONLINE CORPORATION,750,28.5119085,77.2273172,3
Eintien geshaft UK,751,28.6546681,77.1810245,3
GALAXY RETAIL INC,752,28.6583595,77.1929691,3
KINGER ELECTRONICS,753,28.5240107,77.2791376,3
Madhav Enterprises,754,28.7095443,77.1756772,3
EMPIRE TIME INDUSTRIES,755,28.6767517,77.3165937,3
GAURVI ENTERPRISES,756,28.6689795,77.2891943,3
AK ACCESSORIES,757,28.6796016,77.2800782,3
NYLARO INTERNATIONAL PRIVATE LIMITED,758,28.620828,77.074066,3
S K TRADERS,759,28.6694118,77.287496,3
ASIAN AURA,760,28.7835154,77.0619644,3
Berkowits Hair & Skin Clinic,761,28.5559286,77.2411317,3
Xcentax,762,28.8413369,77.1841372,3
Gems & Jelley's,763,28.6801184,77.1951892,3
GALAXY WORLD,764,28.6611243,77.2626588,3
PANKAJ PRASAD,765,28.5842523,77.1638282,3
V&S PUBLISHERS,766,28.6479786,77.2430828,3
SHREE KRISHAN,767,28.619985,77.073223,3
FARM STAR PRODUCTS,768,28.5288876,76.954584,3
BROADSTAR RETAIL NET,769,28.5541424,77.1771323,3
KRTIYAA APPAREL,770,28.5226917,77.1774309,3
BALAJI DURGA PRASAD ENTERPRISE,771,28.650497,77.16597,3
SHYAMA COLLECTIONS,772,28.6147034,77.0506072,3
GLOBAL CLOTHING COMPANY,773,28.6713097,77.28067,3
Ratna Sagar Pvt Ltd,774,28.642111,77.243599,3
JHS SVENDGAARD BRANDS LIMITED,775,28.511736,77.296748,3
RVS INFO SOLUTIONS,776,28.6418643,77.2956309,3
TGS INDIA,777,28.4983049,77.3110054,3
BHAGWATI NANDAN RETAILS,778,28.6347308,77.3045711,3
NEW LOOK BANGLES,779,28.6799667,77.0403648,3
SHARMA ENTERPRISES,780,28.599102,77.293349,3
SATYA ENTERPRISES,781,28.5448686,77.1281345,3
RAAS SHOP,782,28.5226398,77.2766501,3
PYRAMID FASHIONS,783,28.6999815,77.1643337,3
STYLO BUG ENTERPRISES,784,28.5207682,77.081413,3
SELLERS CURE THE BUSINESS DEVELOPERS LLP,785,28.52559,77.079619,3
OVEO PRODUCTS,786,28.7202208,77.1573747,3
BNOM Technologies,787,28.6110638,77.0428557,3
ANANT ENTERPRISES,788,28.7007554,77.0973391,3
DARK HORSE ENTERPRISES,789,28.6655939,77.0583115,3
V K FASHION,790,28.517914,77.2652872,3
BKS TRADERS,791,28.6693226,77.201677,3
PHYSIO LIFE CARE,792,28.6835842,77.137522,3
M/s Lovelook Skin Science,793,28.5054674,77.2318174,3
GOODWILL INTERNATIONAL,794,28.6436082,77.0869837,3
SAI ROBOTIC,795,28.5251471,77.2585643,3
ALKA TRADERS,796,28.6727083,77.2617342,3
ASHA PRODUCTS,797,28.754044,77.053996,3
DEENIV FASHION,798,28.6811349,77.2969684,3
BRIGHT INDIA,799,28.6441696,77.2419174,3
TURBO INTERNATIONAL,800,28.6860491,77.003763,3
OM SAI ELECTRICALS,801,28.7012416,77.2977299,3
ANURAG PRAKASHAN,802,28.642034,77.244563,3
BLACK COLLECTION,803,28.6836746,77.1332094,3
BANUCHI FASHIONS,804,28.6561322,77.1043559,3
RMR BRANDS.,805,28.6696613,77.0568756,3
SONIA COLOR LAB & STUDIO,806,28.6721702,77.083787,3
ANGELITE CREATION,807,28.5355069,77.1228536,3
SHIV ENTERPRISES,808,28.6758565,77.1593012,3
MOCHITES,809,28.607059,77.052916,3
KUMAR JEWELLERS,810,28.6701296,77.1481568,3
H R TRADERS,811,28.6298427,77.0029111,3
SONA ENTERPRISES,812,28.5024307,77.3183538,3
DOLLAR INDUSTRIES LTD.,813,28.7886037,77.1411602,3
Nancy Designs Inc,814,28.5185018,77.2672335,3
B.K ACCESSORIES,815,28.6624624,77.0722759,3
R.G. ENTERPRISES,816,28.6999815,77.1643337,3
GLOBAL VISION,817,28.6312184,77.0863049,3
KITTYFI TRADERS,818,28.6809157,77.320475,3
SAJAVAT HOME DECOR,819,28.5119418,77.2664336,3
GAURAV ELECTRONICS,820,28.6228156,77.061558,2
VALLEY OF FLOWERS,821,28.6310145,77.2853056,2
MEDMONGERS INC,822,28.6193956,77.115493,2
Puneet Electronic,823,28.6259865,77.2789572,2
ICC CHEMTEC PVT LTD,824,28.5031025,77.2023213,2
rising star reteil,825,28.65642134,77.11524102,2
KAVYLIP HERBAL LLP,826,28.7157406,77.1351454,2
CONCEPTS INFOSYSTEMS,827,28.6609315,77.1731173,2
BNDYA,828,28.6488191,77.2814605,2
House of Brands Fashion LLP,829,28.6860624,77.0874065,2
NEW ALLIED LPG APPLIANCES,830,28.6394246,77.3109035,2
MANISHA INTARNATIONAL PVT LTD,831,28.5184436,77.1993618,2
PRS INDUSTRIES,832,28.6995275,77.1593825,2
KANNU IMPEX (INDIA) PRIVATE LIMITED,833,28.5325722,77.0530452,2
GREAT INDIA ENTERPRISES,834,28.6739089,77.1841511,2
WAKE UP INDIA,835,28.6448474,77.2403773,2
Guru Enterprises,836,28.7237141,77.0798302,2
SALASAR INC.,837,28.6129761,77.0415728,2
HI TECH NATURAL PRODUCTS INDIA LIMITED,838,28.685573,77.313419,2
SIRONA HYGIENE PRIVATE LIMITED,839,28.49742,77.1456573,2
VR HEALTH SCIENCE (OPC) PRIVATE LIMITED,840,28.6284635,77.122811,2
AT YOUR DOOR,841,28.644209,77.102579,2
Fresh Vibes Co,842,28.528866,77.248267,2
Nidhi Enterprises,843,28.6289138,77.2733175,2
OCEAN ENTERPRISES,844,28.6581477,77.0979753,2
MAHADEV ENTERPRISING,845,28.5376318,77.2282863,2
GUARDIAN HEALTHCARE SERVICES PRIVATE LIMITED,846,28.5336981,77.2724231,2
Skyzaar Tech,847,28.7081756,77.1355331,2
FRAZZER,848,28.658577,77.141579,2
MIRZA SAHAB,849,28.590917,77.2443842,2
GAURAV ASSOCIATES,850,28.6363269,77.2872084,2
JERSEY STORE,851,28.673969,77.182165,2
BHAGWATI ENTERPRISES,852,28.6246065,77.0312481,2
KOMAL INTERNATIONAL.,853,28.7192087,77.0776719,2
ELMA PURSES,854,28.6558834,77.2005232,2
DINESH,855,28.71940039,77.13046206,2
Malik Enterprises,856,28.6037176,77.0699967,2
RIDHI SOLUTIONS,857,28.6387969,77.2713503,2
A.R. SILK HANDLOOM,858,28.649159,77.227465,2
SKY TRENDZS,859,28.6693259,77.2825568,2
MILANO MODA INC,860,28.7020337,77.1237928,2
WONDER ENTERPRISES,861,28.696795,77.1051951,2
CREATIONS OF INNOVATION,862,28.6591408,77.1496848,2
PEEPALCOMM,863,28.5218053,77.2855262,2
BODY CORE SCIENCE,864,28.6348773,77.2835746,2
Shree Shyam Jewellers,865,28.7119587,77.187999,2
DEEPAK BABU,866,28.6416186,77.2156634,2
RAJRAMAN INDIA,867,28.5207682,77.081413,2
TOUCHSTONE TELESERVICES PRIVATE LIMITED,868,28.6837743,76.9886534,2
MD Enterprise,869,28.6516702,77.2921627,2
TNW ENTERPRISES,870,28.5524716,77.2898993,2
Gurvinder,871,28.697923,77.105352,2
S.P.M TRADERS,872,28.6242757,77.0634705,2
G B TECH INDIA,873,28.642111,77.243599,2
HS ENTERPRISES,874,28.7324287,77.1442022,2
PATHAK ENTERPRISES,875,28.6141579,77.0654407,2
Xcilos,876,28.6634765,77.1434606,2
SHEZONE,877,28.6518,77.1947989,2
eBuyEnjoy Global Trade,878,28.6417002,77.1224529,2
BKS TRADERS,879,28.6693226,77.201677,2
AVIRA,880,28.5183848,77.2369229,2
KALASH TRADING,881,28.6596747,77.2228179,2
LACHMI NARAIN,882,28.656019,77.231373,2
PRINGLE HOMEWARE PVT. LTD.,883,28.727675,77.156222,2
Decora Enterprises,884,28.6668905,77.0610058,2
KOMPAKT ENTERPRISES,885,28.4975991,77.3113071,2
NAGAR ENTERPRISES,886,28.675338,77.118833,2
EMOSIS,887,28.7176198,77.2691295,2
EHOP TECHNOLOGIES,888,28.5129697,77.2030643,2
OSAAR CREATION,889,28.694817,77.07624,2
ALIGHT INTERNATIONAL,890,28.8024572,77.0765717,2
BADLAAV TRADE INDIA PRIVATE LIMITED,891,28.6209963,77.0018251,2
SUNRISE INTERNATIONAL,892,28.63844,77.032996,2
WELLNESS Q.E.D. PRIVATE LIMITED,893,28.507692,77.232224,2
Sunshine Activities,894,28.514317,77.2017119,2
JMD INTERNATIONAL,895,28.709061,77.066833,2
AGGARWAL ELECTRONICS,896,28.697657,77.065423,2
MILD CARES,897,28.5430111,77.2530091,2
GOODWILL ENTERPRISES,898,28.6469973,77.1887421,2
WIN MEDICARE PRIVATE LIMITED,899,28.5475125,77.2523834,2
RMR GROUP,900,28.5943178,77.3021573,2
NAMOSHIVAI APPARELS PRIVATE LIMITED,901,28.6165957,77.0090854,2
SHREEJI COLLECTIONS,902,28.682722,77.255774,2
TRIPLE PLAY TECHNOLOGIES PRIVATE LIMITED,903,28.645603,77.204899,2
JAGAT MOTORS,904,28.7186573,77.1499544,2
KAY TENT INDUSTRIES,905,28.6243546,77.1250105,2
SEVENSEAS TECHNOSOLUTIONS PVT. LTD.,906,28.6288177,77.2771756,2
GROVER ASSOCIATES PVT LTD,907,28.5365346,77.2366701,2
Health Arx Technologies Private Limited,908,28.5347243,77.2694972,2
MOUNTANYA EXPORTS,909,28.6268722,77.1229472,2
Divya Enterprises,910,28.5842723,77.2444444,2
JAZZ AND SIZZLE STORE,911,28.5317332,77.2538756,2
Squared Gadgets,912,28.6933555,77.1923685,2
Leeway,913,28.6335775,77.1323292,2
ANGHA CREATIONS,914,28.6691255,77.0928656,2
MARC LOIRE FASHIONS PVT LTD,915,28.7088844,77.0131347,2
PUREXA GLOBAL PRIVATE LIMITED,916,28.5577645,77.2425365,2
MAXX TRADERS,917,28.6522919,77.2845219,2
LEAFY LEAVES,918,28.6571677,77.2847189,2
YOUBELLA JEWELLERY AND LIFESTYLE,919,28.5875498,77.0908263,2
Sharma Traders,920,28.6899888,77.2866674,1
A.A APPARELS,921,28.6502145,77.20521,1
SHYAM HOSIERY,922,28.5182743,77.2348665,1
IRA COLLECTIONS,923,28.6328554,77.0412958,1
SR APPARELS,924,28.6626075,77.2593936,1
LINKERS,925,28.6600015,77.1500659,1
WIGGIES TRADERS,926,28.7581571,77.1370154,1
THE SWEG,927,28.4993959,77.2918391,1
HARPA RETAIL PVT. LTD.,928,28.5000213,77.2882046,1
GN Traders,929,28.7729817,76.9664115,1
VIVO HOLDINGS INTERNATIONAL PRIVATE LIMITED,930,28.5242596,77.1920594,1
DHANN OVERSEAS,931,28.674201,77.308196,1
VENUS OPTICS,932,28.6563998,77.2230375,1
Spring Art Creations,933,28.711347,77.100259,1
SALVE PHARMACEUTICALS PRIVATE LIMITED,934,28.6587213,77.1524986,1
MS Distributors Pvt. Ltd,935,28.54905,77.2138165,1
RETAIL LIFESTYLE,936,28.525489,77.257286,1
SOUL ENTERPRISES,937,28.6890729,77.0291312,1
ELLIXY DESIGNS PRIVATE LIMITED,938,28.6510113,77.1954455,1
ARCHES TRADERS,939,28.6987044,77.0602275,1
GLOBATIC HERBS,940,28.629403,77.082095,1
BNOM Technologies,941,28.6110638,77.0428557,1
TWO I ENTERPRISES,942,28.497927,77.3087494,1
AB Traders,943,28.6428676,77.0956567,1
VAISHNAVI ENTERPRISES,944,28.4910252,77.3111848,1
V.K KNITTING INDUSTRIES,945,28.721217,77.1566329,1
BLACK STONE EXIM,946,28.5561331,77.1677707,1
DIGITAL DSM ENTERPRISES,947,28.6087,77.0897321,1
Footox Footwear,948,28.6796815,77.0658918,1
Sitara Crafts Inc,949,28.7191961,77.1006616,1
TEAMTECH ELECTRONICS LIMITED,950,28.6248142,77.1246959,1
DHANESHWAR MERCHANTS,951,28.734786,77.1441178,1
BESURE HEALTHCARE PVT LTD,952,28.5223359,77.2848972,1
NEW BRIGHT OVERSEAS,953,28.6411578,77.2434334,1
A M ENTERPRISES,954,28.7441682,77.1980083,1
TEJAS SMART GADGETS,955,28.6412981,76.9847449,1
RIDDHI TOYS,956,28.7582634,77.1946018,1
BAUDHI,957,28.5378546,77.2075942,1
SPICE HERBALS AND AMENITIES PRIVATE LTD,958,28.531016,77.274928,1
ABHAY ENTERPRISE,959,28.6841114,77.2896803,1
VINISI ECOMMERCE (OPC) PRIVATE LIMITED,960,28.590072,77.092495,1
ENSAC World,961,28.6850198,77.0981743,1
MAJESTIC FOODS INTERNATIONAL,962,28.6354459,77.3110183,1
ST BOTANICA BEAUTY PRIVATE LIMITED,963,28.535922,77.0578351,1
BERNINA INTERNATIONAL PVT LTD,964,28.5441475,77.1159808,1
Sharma Enterprises,965,28.624281,77.298359,1
Royal Diamond,966,28.7100319,77.2603927,1
Saransh Enterprises,967,28.5575761,77.2488905,1
Narendra Pharmacy,968,28.6388087,77.2972541,1
TELETALK ADROIT INDIA PRIVATE LIMITED,969,28.6335775,77.1323292,1
ROHIT KUMAR JHA,970,28.7003566,77.0655152,1
Just Click,971,28.7250664,77.0568062,1
PAARTH INDUSTRIES,972,28.7607407,77.1512893,1
MAYA GYAN Enterprises,973,28.6518228,77.2828969,1
E-TECH ENTERPRISES,974,28.6881825,77.1321415,1
Hulk,975,28.5690641,77.2863052,1
LIBRAL TRADERS PRIVATE LIMITED,976,28.537029,77.2759641,1
Bluemart,977,28.4936527,77.2302543,1
EISHIT ENTERPRISES,978,28.6712889,77.099506,1
CRAFT BAZAR,979,28.5705808,77.2364452,1
HAKIMA ENTERPRISES,980,28.64904,77.1923793,1
GLOBAL DENT AIDS PVT. LTD.,981,28.5400568,77.4007785,1
PK FASHIONABLE.INC,982,28.5143116,77.179565,1
JINDAL TRADING CO.,983,28.706135,77.1221108,1
SINHAL METAL INDUSTRIES CORP.,984,28.7030911,77.1693705,1
NEVYA TRADING COMPANY,985,28.7229097,77.0798071,1
Shri Maruti Enterprises,986,28.7154638,77.0978149,1
TELETALK ADROIT INDIA PRIVATE LIMITED,987,28.6335775,77.1323292,1
JMD STORE,988,28.7061007,77.0581997,1
RAMJEE FOOTWEARS,989,28.6740798,77.0927451,1
Nawab Saheb,990,28.5678415,77.2841597,1
Delhi deals hub,991,28.6808499,77.281185,1
Vidhata Enterprises,992,28.5245232,77.1946887,1
SHEZONE,993,28.6518,77.1947989,1
